City ID,City,Country,Lat,Lng,Temperature,Humidity,Clouds,Wind Speed
3840300,Presidencia Roque Sáenz Peña,AR,-26.7852,-60.4388,63.57,11,1,13.33
5848280,Kapaa,US,22.0752,-159.319,75.11,81,40,13.8
2021188,Kurumkan,RU,54.3,110.3,65.97,53,59,4.52
5866583,Saint Paul Harbor,US,57.79,-152.4072,54.91,76,1,4.61
5746545,Portland,US,45.5234,-122.6762,69.1,71,75,1.01
3985710,Cabo San Lucas,MX,22.8909,-109.9124,88.21,71,1,5.99
1214026,Sabang,ID,5.8933,95.3214,83.62,77,68,20.31
3439208,Capiíbary,PY,-24.8,-56.0333,54.46,49,97,8.7
2122090,Pevek,RU,69.7008,170.3133,33.91,93,100,15.19
3664716,Canutama,BR,-6.5339,-64.3831,99.21,26,32,3.31
2206939,Bluff,NZ,-46.6,168.3333,48.79,71,82,21.3
3424607,Tasiilaq,GL,65.6145,-37.6368,42.96,82,48,5.08
3933659,Pacocha,PE,-17.5833,-71.3333,59.14,88,90,8.05
2075265,Busselton,AU,-33.65,115.3333,46.04,63,92,11.99
1810240,Gejiu,CN,23.306,103.1635,60.35,87,96,0.22
2239862,Malanje,AO,-9.5402,16.341,71.76,18,73,2.91
2276492,Harper,LR,4.375,-7.7169,78.49,71,94,10.56
5110365,Broome,US,42.2506,-75.833,82.89,51,1,4.0
2181625,Te Anau,NZ,-45.4167,167.7167,44.64,92,85,4.25
5106841,Albany,US,42.6001,-73.9662,83.37,56,9,3.91
1235846,Matara,LK,5.9485,80.5353,79.2,87,91,11.16
1507390,Dikson,RU,73.5069,80.5464,56.12,89,100,16.91
4020109,Atuona,PF,-9.8,-139.0333,77.77,72,28,20.15
2163355,Hobart,AU,-42.8794,147.3294,55.54,62,88,5.01
3833367,Ushuaia,AR,-54.8,-68.3,37.02,82,100,4.88
3831208,Qaanaaq,GL,77.484,-69.3632,42.82,96,80,5.1
933995,Souillac,MU,-20.5167,57.5167,66.36,92,98,17.52
4030556,Rikitea,PF,-23.1203,-134.9692,74.12,76,97,16.31
4032243,Vaini,TO,-21.2,-175.2,66.36,94,75,4.61
470762,Vyartsilya,RU,62.1764,30.693,73.11,56,50,6.71
3115739,Narón,ES,43.5167,-8.1528,68.41,73,23,8.21
155016,Malinyi,TZ,-8.9333,36.1333,70.29,38,1,4.54
5282297,Bethel,US,41.3712,-73.414,86.56,54,1,4.0
3382160,Cayenne,GF,4.9333,-52.3333,86.09,71,90,7.0
3355672,Lüderitz,NA,-26.6481,15.1594,58.42,77,0,13.13
1006984,East London,ZA,-33.0153,27.9116,72.54,23,0,5.75
2641598,Newport,GB,51.5877,-2.9984,68.41,78,53,9.06
6201424,Mataura,NZ,-46.1927,168.8643,48.47,90,100,1.86
935215,Saint-Philippe,RE,-21.3585,55.7679,67.87,74,51,10.98
1171868,Loralai,PK,30.3705,68.598,87.03,46,76,12.44
2156643,Mount Gambier,AU,-37.8333,140.7667,53.51,76,90,21.85
1516589,Zhezkazgan,KZ,47.8043,67.7144,73.33,23,0,11.97
110690,Faya,SA,18.3851,42.4509,64.92,81,99,7.05
1337610,Thinadhoo,MV,0.5333,72.9333,82.08,71,59,4.72
3838859,Río Gallegos,AR,-51.6226,-69.2181,42.85,87,90,8.05
2090021,Namatanai,PG,-3.6667,152.4333,79.05,81,51,5.48
2018553,Ol'ga,RU,43.7444,135.2892,67.84,97,45,3.0
2110227,Butaritari,KI,3.0707,172.7902,81.73,72,100,10.54
5855927,Hilo,US,19.7297,-155.09,73.85,91,90,3.44
1106677,Bambous Virieux,MU,-20.3428,57.7575,66.22,84,97,16.22
5919850,Chapais,CA,49.7834,-74.8492,59.79,41,73,9.46
1640972,Katobu,ID,-4.9408,122.5276,73.51,91,44,3.65
1506271,Gorno-Altaysk,RU,51.9561,85.955,56.57,91,35,1.74
964432,Port Alfred,ZA,-33.5906,26.891,73.87,28,0,20.85
2738381,Lata,PT,40.1629,-8.3327,69.67,45,0,12.86
1806445,Ji’an,CN,27.1172,114.9793,79.79,83,25,2.1
1263776,Mangan,IN,27.5167,88.5333,78.37,90,100,1.41
2071860,Esperance,AU,-33.8667,121.9,51.39,73,74,20.71
5131638,Plainview,US,40.7765,-73.4673,87.76,45,1,3.0
3443061,Chui,UY,-33.6971,-53.4616,48.97,51,3,17.18
3146487,Raudeberg,NO,61.9875,5.1352,61.48,90,100,7.72
6185377,Yellowknife,CA,62.456,-114.3525,55.22,62,52,8.99
2015306,Tiksi,RU,71.6872,128.8694,35.74,95,53,4.76
3832899,Viedma,AR,-40.8135,-62.9967,48.2,53,62,26.8
1630058,Karaton,ID,-6.3424,106.1045,75.4,85,46,1.07
5850554,Makakilo City,US,21.3469,-158.0858,76.78,65,1,4.61
2122104,Petropavlovsk-Kamchatskiy,RU,53.0452,158.6483,57.7,87,100,14.27
3471451,Arraial do Cabo,BR,-22.9661,-42.0278,85.86,45,0,13.8
3466165,Cidreira,BR,-30.1811,-50.2056,54.5,60,70,18.57
3416888,Grindavik,IS,63.8424,-22.4338,54.07,87,99,16.11
2123814,Leningradskiy,RU,69.3833,178.4167,35.89,98,100,4.72
2136825,Isangel,VU,-19.55,169.2667,69.19,72,41,12.06
1150965,Ranong,TH,9.9658,98.6348,80.22,87,87,13.73
2236967,Soyo,AO,-6.1349,12.3689,74.23,83,90,11.61
2155415,New Norfolk,AU,-42.7826,147.0587,53.92,62,99,1.99
4589207,Newberry,US,34.2746,-81.6187,89.83,67,88,3.58
2112802,Hasaki,JP,35.7333,140.8333,75.6,74,83,10.25
2180815,Tuatapere,NZ,-46.1333,167.6833,48.81,87,87,5.35
3694112,Paita,PE,-5.0892,-81.1144,79.36,72,66,10.42
1067565,Beloha,MG,-25.1667,45.05,61.75,67,55,9.35
3573374,The Valley,AI,18.217,-63.0578,86.43,66,40,16.11
2064735,Nhulunbuy,AU,-12.2333,136.7667,70.41,94,18,0.0
70979,Sayyan,YE,15.1718,44.3244,70.43,47,94,4.45
1185207,Ishurdi,BD,24.1333,89.0833,82.62,87,100,5.17
2234974,Bamenda,CM,5.9527,10.1582,66.56,89,67,4.14
3374333,Praia,CV,14.9215,-23.5087,82.94,61,75,6.91
2121025,Srednekolymsk,RU,67.45,153.6833,41.94,75,100,10.51
1803300,Liuzhou,CN,24.3126,109.3892,85.41,66,25,0.67
6255012,Flinders,AU,-34.5833,150.8552,56.61,66,100,1.01
4035715,Avarua,CK,-21.2078,-159.775,69.85,83,20,2.3
3514843,Vega de Alatorre,MX,20.0333,-96.6333,86.65,59,60,5.95
88533,Awjilah,LY,29.1081,21.2869,96.42,18,0,7.74
1793424,Taku,CN,39.0211,117.6469,75.16,90,100,7.67
3391774,Poção de Pedras,BR,-4.6667,-44.85,96.62,28,9,4.65
546105,Nikolskoye,RU,59.7035,30.7861,81.64,48,38,4.34
2108857,Gizo Government Station,SB,-8.103,156.8419,81.63,75,93,6.78
1282256,Hithadhoo,MV,-0.6,73.0833,81.32,78,98,7.58
777019,Vardø,NO,70.3705,31.1107,48.18,93,75,2.3
2194098,Ahipara,NZ,-35.1667,173.1667,54.57,81,16,9.69
3466704,Castro,BR,-24.7911,-50.0119,68.68,58,71,12.71
4791259,Virginia Beach,US,36.8529,-75.978,86.25,71,75,6.91
5327550,Benicia,US,38.0494,-122.1586,67.1,70,20,1.01
3470137,Belmonte,BR,-15.8631,-38.8828,77.5,68,24,6.55
3115824,Muros,ES,42.7762,-9.0603,73.92,64,37,16.22
3674676,Mitú,CO,1.1983,-70.1733,88.59,55,58,2.17
3652764,Puerto Ayora,EC,-0.7393,-90.3518,74.41,68,54,10.71
1637001,Biak,ID,-0.9131,122.8766,74.68,79,24,7.63
745527,Horasan,TR,40.0458,42.1728,69.78,59,48,7.36
1490256,Talnakh,RU,69.4865,88.3972,73.0,64,92,7.29
1529484,Kumul,CN,42.8,93.45,90.81,15,2,4.0
934322,Mahébourg,MU,-20.4081,57.7,66.25,86,98,17.49
2014624,Udachny,RU,66.4167,112.4,75.43,48,84,3.87
3470744,Barra da Estiva,BR,-13.6261,-41.3269,78.87,34,9,8.46
3874787,Punta Arenas,CL,-53.15,-70.9167,42.53,93,75,10.36
2208248,Kaitangata,NZ,-46.2817,169.8464,42.93,69,89,5.57
1259385,Port Blair,IN,11.6667,92.75,82.47,85,89,18.23
3991622,La Providencia,MX,28.7167,-111.5833,94.15,53,11,3.0
3398428,Humberto de Campos,BR,-2.5983,-43.4611,90.23,48,30,6.76
1586443,Ca Mau,VN,9.1769,105.15,79.21,86,15,6.2
3868210,Vilcún,CL,-38.65,-72.2333,45.34,55,12,6.06
3408368,Acaraú,BR,-2.8856,-40.12,87.26,54,35,19.51
2630299,Hofn,IS,64.2539,-15.2082,55.24,79,95,2.68
1494941,Pirovskoye,RU,57.6267,92.2658,59.5,74,96,7.7
5870133,Nome,US,64.5011,-165.4064,50.07,87,90,12.66
2637853,Sidmouth,GB,50.6909,-3.2397,66.79,88,40,14.97
1282898,Pokhara,NP,28.2333,83.9833,74.97,84,98,3.22
2022572,Khatanga,RU,71.9667,102.5,74.37,57,70,11.12
2120047,Ust'-Omchug,RU,61.15,149.6333,46.62,87,100,5.64
1735106,George Town,MY,5.4112,100.3354,83.89,81,20,0.0
6089245,Norman Wells,CA,65.282,-126.8329,57.47,87,99,1.92
2126123,Chokurdakh,RU,70.6333,147.9167,35.22,86,100,10.56
3430863,Mar del Plata,AR,-38.0023,-57.5575,47.93,59,90,10.0
1488048,Ulagan,RU,50.6321,87.9563,54.41,98,100,2.28
2658112,Visp,CH,46.2937,7.8815,69.78,85,100,2.51
2084442,Vanimo,PG,-2.6741,141.3028,78.1,90,74,6.42
2033413,Yichun,CN,47.7,128.9,69.03,92,4,2.42
3155152,Gravdal,NO,68.1214,13.5031,64.29,77,0,6.91
3467371,Capâo Bonito,BR,-24.0058,-48.3494,81.41,28,8,12.03
2126199,Cherskiy,RU,68.75,161.3,35.37,87,89,16.67
3369157,Cape Town,ZA,-33.9258,18.4232,55.53,88,90,3.0
3366880,Hermanus,ZA,-34.4187,19.2345,57.79,90,44,22.86
5122534,Jamestown,US,42.097,-79.2353,80.91,44,20,14.97
1714733,Dingle,PH,10.9995,122.6711,79.14,81,95,11.68
3454005,Piaçabuçu,BR,-10.4056,-36.4344,77.76,79,31,10.04
4031574,Provideniya,RU,64.3833,-173.3,46.72,99,100,10.94
1140025,Herat Province,AF,34.5,62.0,82.99,11,0,37.8
3928924,Satipo,PE,-11.2522,-74.6386,87.64,43,9,2.73
3414079,Olafsvik,IS,64.8945,-23.7142,53.04,73,72,17.45
1224061,Wattegama,LK,6.7989,81.4808,80.47,68,97,6.71
1513491,Yangi Marg`ilon,UZ,40.4272,71.7189,86.72,32,40,4.61
155056,Malampaka,TZ,-3.1333,33.5333,73.0,38,34,5.01
2738785,Guarda,PT,40.5373,-7.2658,75.24,25,0,12.37
3894406,Coihueco,CL,-36.6167,-71.8333,48.94,66,0,14.97
1651810,Airai,TL,-8.9266,125.4092,56.59,79,29,3.0
5382232,Petaluma,US,38.2324,-122.6367,65.57,76,1,0.0
6111696,Port-Cartier,CA,50.0334,-66.8654,66.92,89,100,5.03
2294915,Takoradze,GH,4.8845,-1.7554,78.93,71,100,11.68
1505453,Ishim,RU,56.1128,69.4902,61.84,59,100,9.33
174448,Abu Kamal,SY,34.4506,40.9171,99.68,17,0,11.88
3976161,Adolfo López Mateos,MX,28.4667,-107.3,77.94,34,3,8.28
5983720,Iqaluit,CA,63.7506,-68.5145,55.13,54,75,10.36
1492252,Sheregesh,RU,52.9209,87.9869,54.0,87,100,3.11
1635815,Maumere,ID,-8.6199,122.2111,75.78,77,26,2.71
5880054,Barrow,US,71.2906,-156.7887,42.82,96,90,8.05
3419842,Sisimiut,GL,66.9395,-53.6735,57.74,57,91,21.77
3460087,Jardim,BR,-21.4803,-56.1381,58.39,85,100,11.27
2729907,Longyearbyen,SJ,78.2186,15.6401,46.24,87,75,10.36
2070998,Geraldton,AU,-28.7667,114.6,59.41,67,90,8.05
5367788,Lompoc,US,34.6391,-120.4579,63.46,82,90,3.44
962367,Richards Bay,ZA,-28.783,32.0377,67.19,63,18,17.52
3489523,May Pen,JM,17.9645,-77.2451,87.01,44,96,12.39
2126710,Beringovskiy,RU,63.05,179.3167,48.16,97,100,10.13
3628473,San Cristobal,VE,7.7669,-72.225,84.38,63,96,5.23
5924351,Clyde River,CA,70.4692,-68.5914,55.63,67,75,6.91
2641434,Northam,GB,51.0333,-4.2167,64.85,85,68,14.83
567774,Chudovo,RU,59.1167,31.6833,74.32,56,64,2.1
3939168,Huarmey,PE,-10.0681,-78.1522,70.57,73,30,10.13
3354077,Opuwo,NA,-18.0607,13.84,67.69,23,0,7.92
2171099,Codrington,AU,-38.2667,141.9667,53.82,89,89,23.0
3451138,Rio Grande,BR,-32.035,-52.0986,49.95,43,27,20.94
2121385,Severo-Kuril'sk,RU,50.6789,156.125,56.68,97,100,8.93
964420,Port Elizabeth,ZA,-33.918,25.5701,63.1,34,11,10.74
3361934,Saldanha,ZA,-33.0117,17.9442,57.65,88,100,15.35
1688781,City of San Pedro,PH,14.35,121.0167,79.36,89,100,18.45
2128025,Shizunai-furukawachō,JP,42.3339,142.3669,68.07,95,28,4.76
3393536,Olinda,BR,-8.0089,-34.8553,78.53,69,20,13.8
2033135,Zhengjiatun,CN,43.5064,123.5064,74.75,81,89,5.39
3092472,Malbork,PL,54.0359,19.0266,75.88,64,89,4.85
5380437,Pacific Grove,US,36.6177,-121.9166,65.17,84,1,3.0
3883457,Lebu,CL,-37.6167,-73.65,49.17,65,1,23.2
496934,Serdobsk,RU,52.4586,44.2169,68.54,57,45,3.11
2644122,Llandrindod Wells,GB,52.2416,-3.3787,64.15,81,92,6.73
544084,Koslan,RU,63.4564,48.8989,45.37,92,100,9.53
3894426,Coyhaique,CL,-45.5752,-72.0662,46.33,53,0,0.0
6355222,Yulara,AU,-25.2406,130.9889,67.84,32,90,9.22
878281,Lindi,TZ,-10.0,39.7167,73.31,68,13,7.02
3663475,Maraã,BR,-1.8333,-65.3667,92.32,44,82,3.65
2264557,Ponta do Sol,PT,32.6667,-17.1,77.2,75,3,4.43
1819729,Hong Kong,HK,22.2855,114.1577,86.7,86,75,1.01
2542997,Marrakesh,MA,31.6315,-8.0083,98.67,28,0,4.61
1806840,Huilong,CN,31.8111,121.655,78.98,91,100,22.64
2328113,Otukpo,NG,7.1913,8.1329,77.61,74,90,4.76
3185672,Fier,AL,40.7239,19.5561,87.91,37,0,4.99
4171522,St. Pete Beach,US,27.7253,-82.7412,89.06,67,20,1.01
3935102,Mazamari,PE,-11.3258,-74.5308,87.8,43,11,2.44
2447513,Arlit,NE,18.7369,7.3853,80.13,58,92,25.99
5905393,Bonavista,CA,48.6499,-53.1147,71.6,95,94,13.6
2074865,Carnarvon,AU,-24.8667,113.6333,57.27,59,40,6.91
5563839,Fortuna,US,40.5982,-124.1573,54.41,96,75,0.0
1272780,Dhenkānāl,IN,20.6667,85.6,80.38,83,100,11.54
157198,Kiomboi,TZ,-4.2667,34.3667,68.18,37,46,4.9
6167817,Torbay,CA,47.6666,-52.7314,67.44,93,75,17.27
2392087,Porto-Novo,BJ,6.4965,2.6036,78.62,65,99,11.05
3374462,Mindelo,CV,16.8901,-24.9804,81.95,57,20,18.41
1605538,Thap Khlo,TH,16.16,100.5966,78.08,86,92,0.98
2177671,Armidale,AU,-30.5167,151.65,39.34,74,1,5.91
3421319,Nuuk,GL,64.1835,-51.7216,59.61,72,75,20.71
1083239,Ambatofinandrahana,MG,-20.55,46.8,52.9,60,54,3.31
2129513,Shimokizukuri,JP,40.8061,140.3861,73.11,89,65,7.27
1082243,Ambilobe,MG,-13.2,49.05,70.05,80,57,2.04
3141667,Roald,NO,62.5833,6.1333,67.55,77,0,11.5
3137469,Sørland,NO,67.667,12.6934,55.26,89,7,12.64
6551664,Stockelsdorf,DE,53.8905,10.6258,75.36,54,20,8.05
4033543,Teahupoo,PF,-17.8333,-149.2667,71.56,76,31,11.03
2122605,Okhotsk,RU,59.3833,143.3,57.13,90,4,5.26
1267390,Kavaratti,IN,10.5669,72.642,81.81,79,100,18.97
3386213,Touros,BR,-5.1989,-35.4608,76.1,63,10,17.05
161974,Bereket,TM,39.2446,55.5154,96.71,16,0,11.3
362973,Abnūb,EG,27.2696,31.1511,95.02,17,1,10.31
3531368,Celestún,MX,20.8667,-90.4,86.4,64,18,8.39
6170031,Tuktoyaktuk,CA,69.4541,-133.0374,48.2,87,90,9.22
3423146,Ilulissat,GL,69.2167,-51.1,57.22,51,75,6.91
3625710,Upata,VE,8.0086,-62.3989,86.2,59,65,6.11
3664980,Boa Vista,BR,2.8197,-60.6733,89.58,55,75,4.61
3832791,Villa Carlos Paz,AR,-31.4241,-64.4978,50.63,25,0,4.0
3899695,Ancud,CL,-41.8697,-73.8203,47.73,64,57,3.33
2206874,Waipawa,NZ,-41.4122,175.5153,39.51,89,6,4.16
3448903,São João da Barra,BR,-21.6403,-41.0511,84.29,62,0,12.53
2023298,Kalanguy,RU,51.0167,116.5167,56.19,89,14,2.57
4031637,Lavrentiya,RU,65.5833,-171.0,43.59,99,100,6.29
3466980,Caravelas,BR,-17.7125,-39.2481,79.56,56,15,10.2
1784055,Zhuanghe,CN,39.7008,122.9911,75.87,87,88,3.8
3418910,Upernavik,GL,72.7868,-56.1549,49.78,77,100,7.87
4726521,San Patricio,US,28.017,-97.5169,88.66,44,14,4.99
4013679,Coahuayana Viejo,MX,18.7333,-103.6833,87.28,61,91,2.42
5882953,Aklavik,CA,68.2191,-135.0107,55.4,94,90,4.61
304183,Bayir,TR,37.2687,28.2167,93.72,20,0,9.08
2750630,Monster,NL,52.0258,4.175,63.32,93,20,4.0
1337607,Kudahuvadhoo,MV,2.6708,72.8944,82.22,75,100,10.31
2017155,Saskylakh,RU,71.9167,114.0833,55.06,73,25,14.34
1640902,Kawalu,ID,-7.3817,108.2082,69.21,92,44,0.45
3175096,Laas,IT,46.6166,10.7002,65.59,79,69,4.76
6113406,Prince Rupert,CA,54.3161,-130.3201,58.5,82,89,2.15
3372760,Praia da Vitória,PT,38.7333,-27.0667,73.65,83,75,10.25
3445026,Vila Velha,BR,-20.3297,-40.2925,80.55,65,20,13.8
3461425,Ilhabela,BR,-23.7781,-45.3581,85.6,38,0,3.51
1835848,Seoul,KR,37.5683,126.9778,80.76,71,41,1.74
2128975,Nemuro,JP,43.3236,145.575,62.4,100,100,6.55
4914710,Vermilion,US,40.1667,-87.7506,84.22,63,1,10.0
5546220,Saint George,US,37.1041,-113.5841,84.63,60,1,3.0
3424901,Aasiaat,GL,68.7098,-52.8699,43.43,85,100,5.46
3385077,Conde,BR,-7.2597,-34.9075,81.86,69,40,14.97
2012530,Zhigansk,RU,66.7697,123.3711,51.64,77,54,11.45
2146219,Hervey Bay,AU,-25.2986,152.8535,59.04,72,20,4.61
286621,Salalah,OM,17.0151,54.0924,80.69,89,75,5.75
4021858,Guerrero Negro,MX,27.9769,-114.0611,76.82,58,0,11.36
6165406,Thompson,CA,55.7435,-97.8558,60.96,88,75,4.61
3679716,Labranzagrande,CO,5.5622,-72.575,72.82,89,83,5.14
1623197,Tual,ID,-5.6667,132.75,80.94,81,98,17.76
5861897,Fairbanks,US,64.8378,-147.7164,56.84,82,75,0.0
1855540,Naze,JP,28.3667,129.4833,76.05,85,100,10.71
1789647,Xichang,CN,27.8964,102.2634,67.37,96,100,3.8
2109528,Buala,SB,-8.145,159.5921,79.05,85,71,8.05
2122493,Omsukchan,RU,62.5333,155.8,43.81,77,100,7.83
1806687,Yong’an,CN,39.6957,113.6871,67.41,82,97,6.31
4946620,Palmer,US,42.1584,-72.3287,85.82,51,20,1.01
3421765,Nanortalik,GL,60.1432,-45.2371,46.2,78,96,1.41
2636790,Stornoway,GB,58.2093,-6.3865,55.36,94,75,8.05
4034551,Faanui,PF,-16.4833,-151.75,77.83,74,40,9.71
2288105,Grand-Lahou,CI,5.1367,-5.0242,78.24,76,100,10.56
1254709,Tezu,IN,27.9167,96.1667,79.25,79,100,3.51
2016910,Severobaykal'sk,RU,55.65,109.3167,59.85,60,64,1.5
5364271,Laguna,US,38.421,-121.4238,76.87,35,1,1.99
2094746,Kandrian,PG,-6.2167,149.55,76.41,91,71,3.18
3374083,Bathsheba,BB,13.2167,-59.5167,86.61,66,40,18.41
64013,Bosaso,SO,11.2842,49.1816,91.22,41,41,15.1
1254638,Tharād,IN,24.3961,71.6267,84.36,75,100,20.85
921889,Fomboni,KM,-12.28,43.7425,76.33,71,15,14.56
1054329,Vangaindrano,MG,-23.35,47.6,61.57,90,97,9.91
3440777,Rocha,UY,-34.4833,-54.3333,47.53,55,37,19.86
2031964,Darhan,MN,49.4867,105.9228,62.85,76,1,1.77
1648759,Bima,ID,-8.4667,118.7167,70.59,92,42,4.36
370510,Marabba,SD,12.35,32.1833,82.18,62,100,9.42
5780557,Riverton,US,40.5219,-111.9391,83.3,47,1,7.0
286245,Sur,OM,22.5667,59.5289,96.76,44,100,14.34
3372707,Ribeira Grande,PT,38.5167,-28.7,81.0,65,40,11.5
1640660,Kediri,ID,-7.8167,112.0167,71.69,88,16,8.86
516073,Okhansk,RU,57.7186,55.3877,55.47,72,48,4.25
5847486,Kailua,US,21.4022,-157.7394,78.1,73,40,9.22
1490085,Tarko-Sale,RU,64.9225,77.785,47.37,80,19,4.97
3839307,Rawson,AR,-43.3002,-65.1023,45.5,60,54,26.17
3932145,Pisco,PE,-13.7,-76.2167,66.25,77,2,9.22
1852357,Shimoda,JP,34.6667,138.95,75.11,84,100,7.02
3374351,Pombas,CV,17.1503,-25.0201,80.38,78,17,14.65
2522091,Alcúdia,ES,39.8532,3.1214,87.39,56,2,9.95
1259395,Porbandar,IN,21.6422,69.6093,82.13,84,100,23.4
3840092,Puerto Madryn,AR,-42.7692,-65.0385,46.24,55,49,25.79
4231997,Avera,US,33.194,-82.5271,87.57,50,40,3.89
3610813,El Pino,HN,15.7,-86.9333,87.67,70,40,8.05
1015776,Bredasdorp,ZA,-34.5322,20.0403,61.92,51,30,20.71
737054,Zile,TR,40.3031,35.8864,76.32,50,47,8.16
50814,Wajid,SO,3.8093,43.2471,77.7,57,100,17.74
2629833,Husavik,IS,66.0449,-17.3389,49.91,99,100,12.71
3430708,Mercedes,AR,-34.6515,-59.4307,51.28,47,2,19.17
2191562,Dunedin,NZ,-45.8742,170.5036,50.81,52,44,3.0
3352263,Warmbad,NA,-28.45,18.7333,65.61,27,0,9.86
1496511,Novy Urengoy,RU,66.0833,76.6333,49.03,69,37,5.35
2125906,Dukat,RU,62.55,155.55,42.4,80,100,6.33
2012532,Zhigalovo,RU,54.8097,105.1578,61.9,68,4,2.39
1803331,Linxia Chengguanzhen,CN,35.6003,103.2064,55.69,83,62,4.21
487372,Storozhevaya,RU,43.8789,41.4514,59.25,99,100,4.59
468991,Yarega,RU,63.4354,53.5765,44.74,91,95,10.92
584401,Abramovka,RU,51.1886,41.0202,68.61,72,54,3.22
523051,Nebolchi,RU,59.1239,33.3454,73.72,53,29,2.86
2881128,Langenburg,DE,49.2544,9.8458,74.79,57,0,1.14
584051,Agapovka,RU,53.2973,59.1348,63.61,51,39,7.83
630752,Ylöjärvi,FI,61.5563,23.5961,82.78,29,0,9.22
1166819,Rojhan,PK,28.6868,69.9534,93.99,49,100,13.47
3450083,Santa Maria,BR,-29.6842,-53.8069,51.1,43,20,10.36
154654,Masumbwe,TZ,-3.6333,32.1833,72.3,35,7,3.62
3430443,Necochea,AR,-38.5473,-58.7368,46.04,82,91,27.4
1528998,Yumen,CN,40.2833,97.2,78.71,22,39,7.74
2121197,Sinegor'ye,RU,62.0788,150.477,46.35,75,94,4.43
1272140,Dwārka,IN,22.2394,68.9678,82.56,83,100,26.87
64814,Bandarbeyla,SO,9.4942,50.8122,79.9,70,98,28.23
1045114,Inhambane,MZ,-23.865,35.3833,65.84,63,1,7.83
2019135,Nizhniy Kuranakh,RU,58.8353,125.4869,62.46,94,19,1.19
538138,Kuvandyk,RU,51.4781,57.3552,63.86,45,25,3.91
3981345,Topolobampo,MX,25.6,-109.05,87.01,54,20,8.05
1490918,Staryy Nadym,RU,65.6118,72.6842,57.25,53,97,12.59
3984997,San Quintín,MX,30.4833,-115.95,73.87,71,8,9.53
2762453,Velden am Wörther See,AT,46.613,14.0413,75.0,80,70,1.95
2035511,Panshi,CN,42.9422,126.0561,72.68,83,2,2.48
933734,Gweta,BW,-20.1833,25.2333,61.43,33,0,8.23
780717,Båtsfjord,NO,70.6345,29.7185,49.77,93,40,8.05
1649150,Bengkulu,ID,-3.8004,102.2655,75.0,83,2,5.06
597231,Marijampolė,LT,54.5667,23.35,75.27,80,67,5.12
3421719,Narsaq,GL,60.9167,-46.05,59.22,52,99,8.55
3091969,Międzyrzecz,PL,52.4446,15.578,80.67,47,91,8.48
1850523,Tateyama,JP,34.9833,139.8667,77.27,85,86,13.44
1653316,Savannakhet,LA,16.566,104.751,76.55,91,97,7.7
6144312,Sept-Îles,CA,50.2001,-66.3821,67.24,83,100,8.01
256155,Palekastro,GR,35.2,26.25,78.71,66,0,15.61
53654,Mogadishu,SO,2.0371,45.3438,76.78,81,95,19.95
686090,Asău,RO,46.4333,26.4,79.72,80,71,2.86
2126682,Bilibino,RU,68.0546,166.4372,40.05,84,92,6.26
1106643,Quatre Cocos,MU,-20.2078,57.7625,66.09,83,91,13.91
2019488,Namtsy,RU,62.7161,129.6658,62.71,63,4,5.7
1510030,Biskamzha,RU,53.4497,89.5272,55.96,82,91,2.91
2377457,Nouadhibou,MR,20.931,-17.0347,69.46,87,1,29.53
1489209,Troitskoye,RU,52.9821,84.6757,60.62,56,81,6.33
4535783,El Reno,US,35.5323,-97.955,89.92,56,40,5.75
5265499,Oconomowoc,US,43.1117,-88.4993,78.37,61,1,11.5
921786,Mitsamiouli,KM,-11.3847,43.2844,76.01,74,35,15.61
57000,Hobyo,SO,5.3505,48.5268,78.71,72,91,23.73
2436400,Ati,TD,13.2154,18.3353,86.11,55,96,7.74
6148373,Sioux Lookout,CA,50.1001,-91.917,73.47,53,20,3.44
1809483,Guiren,CN,33.6697,118.1889,76.28,96,100,21.54
3929611,San Jerónimo,PE,-11.9472,-75.2829,61.65,37,10,2.62
293842,Kiryat Gat,IL,31.61,34.7642,82.76,59,0,9.31
2450173,Taoudenni,ML,22.6783,-3.9836,115.45,4,6,12.5
5969025,Haines Junction,CA,60.7522,-137.5108,51.75,87,94,1.14
2172880,Byron Bay,AU,-28.65,153.6167,49.98,90,1,10.18
3910901,Mairana,BO,-18.1167,-63.9333,43.68,82,99,6.4
139223,Chālūs,IR,36.655,51.4204,83.66,79,75,2.3
2339937,Gusau,NG,12.1628,6.6614,73.98,84,96,14.5
2012956,Yerbogachën,RU,61.2767,108.0108,66.76,66,6,5.35
3461860,Guaratinga,BR,-16.5667,-39.5667,75.87,39,12,4.45
2527087,Tiznit Province,MA,29.5833,-9.5,81.99,47,0,8.84
779554,Honningsvåg,NO,70.9821,25.9704,44.35,100,90,13.8
100926,Umluj,SA,25.0213,37.2685,88.18,66,100,8.59
1738050,Marabu,MY,4.4148,114.0089,84.34,84,20,3.44
303750,Nisibis,TR,37.0778,41.2178,96.39,12,0,13.8
5803990,Moses Lake,US,47.1301,-119.2781,80.96,36,1,4.61
2231506,Foumban,CM,5.7291,10.9001,67.55,90,71,1.97
3662489,Santa Isabel Rio Negro,BR,-0.4139,-65.0192,93.07,43,58,3.8
933778,Francistown,BW,-21.17,27.5079,58.46,35,0,9.19
986717,Kruisfontein,ZA,-34.0033,24.7314,60.89,54,4,7.58
5713587,Bend,US,44.0582,-121.3153,68.63,56,20,4.61
1220798,Panjakent,TJ,39.4952,67.6093,80.4,28,0,7.7
610091,Chingirlau,KZ,51.095,54.0814,71.01,38,39,8.52
766583,Łęczna,PL,51.3012,22.8814,82.71,54,20,9.22
2094342,Kavieng,PG,-2.5744,150.7967,82.85,74,48,12.8
1857594,Masuda,JP,34.6667,131.85,79.36,92,46,2.68
569579,Chekmagush,RU,55.1319,54.6556,61.29,54,58,4.7
226110,Tororo,UG,0.693,34.1809,68.88,64,92,2.26
5919815,Channel-Port aux Basques,CA,47.5702,-59.1367,62.28,96,99,8.81
889215,Kariba,ZW,-16.5167,28.8,62.62,48,71,2.46
556268,Ostrovnoy,RU,68.0531,39.5131,47.12,82,51,5.44
2074113,Collie,AU,-33.3667,116.15,44.98,89,77,3.24
3531416,Catemaco,MX,18.4167,-95.1167,85.75,68,100,1.99
3372964,Lagoa,PT,39.05,-27.9833,72.05,86,100,11.12
6127749,Rosetown,CA,51.5501,-108.0014,78.78,44,6,6.91
4993659,Garden City,US,42.3256,-83.331,81.86,59,75,12.66
5962442,Goderich,CA,43.7501,-81.7165,72.21,78,92,6.91
3837702,San Fernando del Valle de Catamarca,AR,-28.4696,-65.7852,59.77,37,7,1.99
5847411,Kahului,US,20.8947,-156.47,75.16,89,75,13.8
3421193,Paamiut,GL,61.994,-49.6678,45.91,79,100,18.59
6067472,Marystown,CA,47.1666,-55.1483,67.86,100,100,5.01
1734715,Marang,MY,5.2056,103.2059,78.71,85,39,4.52
2015852,Svetlaya,RU,46.5389,138.3297,67.28,96,99,0.85
5991056,Kenora,CA,49.8167,-94.4337,81.68,31,0,3.44
2315417,Inongo,CD,-1.95,18.2667,74.52,40,53,1.68
2161515,Kiama,AU,-34.6833,150.8667,57.69,63,100,8.01
2980080,Saint-François,FR,46.4154,3.9054,65.62,90,75,3.44
1185095,Teknāf,BD,20.8624,92.3058,79.52,93,100,13.98
4004293,Ixtapa,MX,20.7,-105.2,87.03,62,1,3.44
6111862,Port Hardy,CA,50.6996,-127.4199,57.38,82,40,4.61
3174050,Province of Mantua,IT,45.1667,10.7833,76.05,82,51,9.55
2065594,Mount Isa,AU,-20.7333,139.5,47.97,61,2,0.0
4470244,Havelock,US,34.8791,-76.9013,86.63,81,90,3.0
1337617,Muli,MV,2.9167,73.5667,82.06,78,94,11.86
4829843,Alexander City,US,32.944,-85.9539,86.77,74,75,0.0
544397,Kortkeros,RU,61.8106,51.5806,51.8,90,100,8.9
3436714,Villarrica,PY,-25.75,-56.4333,62.06,26,62,13.29
4513583,Hamilton,US,39.1834,-84.5333,86.95,49,1,0.0
3628423,San Felipe,VE,10.3399,-68.7425,85.03,71,58,2.06
3480908,La Asuncion,VE,11.0333,-63.8628,82.13,83,4,3.44
1591474,Bac Lieu,VN,9.285,105.7244,80.44,85,7,9.64
2641528,Newton Stewart,GB,54.9578,-4.4832,64.35,89,100,7.11
1651531,Ambon City,ID,-3.6954,128.1814,79.27,85,74,10.02
3579925,St. George's,GD,12.0564,-61.7485,85.68,74,20,14.97
4203696,Kennesaw,US,34.0234,-84.6155,87.89,67,40,4.61
140463,Birjand,IR,32.8663,59.2211,81.07,13,0,13.8
2990918,Arrondissement de Narbonne,FR,43.0833,2.8333,79.45,59,59,5.23
2303611,Esim,GH,4.8699,-2.2405,79.14,68,100,8.81
5983626,Invermere,CA,50.5167,-116.0354,82.6,24,52,2.46
2027244,Bagdarin,RU,54.4333,113.6,60.57,65,96,4.07
1057095,Sakaraha,MG,-22.9,44.5333,63.3,49,2,11.07
2610806,Vágur,FO,61.4732,-6.8119,52.11,95,85,13.29
2030065,Mandalgovi,MN,45.7625,106.2708,64.76,62,98,11.3
1218420,Seydi,TM,39.4816,62.9137,90.55,12,0,17.47
1635164,Mlonggo,ID,-6.5333,110.7,75.81,83,34,5.61
3347719,Luena,AO,-11.7833,19.9167,60.49,31,58,4.25
5524849,Lamesa,US,32.7376,-101.951,87.53,24,66,4.18
1510377,Belyy Yar,RU,53.6039,91.3903,66.09,88,0,4.47
5853992,Wahiawā,US,21.5028,-158.0236,75.27,74,13,7.23
1503527,Khovu-Aksy,RU,51.1333,93.6,57.04,88,83,1.81
6319315,Fonte Boa,BR,-2.4959,-66.2662,92.25,47,45,1.52
3346015,Sumbe,AO,-11.2061,13.8437,72.66,84,76,9.55
488618,Starosubkhangulovo,RU,53.1031,57.4423,58.82,66,70,3.44
6301965,Palmerston,AU,-12.486,130.9833,70.18,93,27,3.44
2645525,Kincardine,GB,56.0667,-3.7167,67.23,82,100,1.66
1501377,Kungurtug,RU,50.5994,97.5228,54.1,94,81,1.7
6149374,Slave Lake,CA,55.2834,-114.769,67.14,44,10,9.75
3182910,Arco,IT,45.9177,10.8867,73.72,86,73,2.86
1524801,Shīeli,KZ,44.1667,66.75,81.18,22,0,10.2
3428068,San Vicente,AR,-26.6167,-54.1333,53.65,44,90,7.67
1259184,Puri,IN,19.8,85.85,81.12,74,100,13.53
780687,Berlevåg,NO,70.8578,29.0864,49.8,90,65,8.23
2522325,Agüimes,ES,27.9054,-15.4461,75.83,53,20,29.93
223816,Djibouti,DJ,11.5,42.5,90.82,41,96,6.85
2381334,Atar,MR,20.5169,-13.0499,109.31,10,41,6.49
3412093,Vestmannaeyjar,IS,63.4427,-20.2734,56.39,82,40,5.75
934649,Cap Malheureux,MU,-19.9842,57.6142,66.47,82,65,7.0
1862505,Hirara,JP,24.8,125.2833,81.97,89,95,7.72
3870282,Talcahuano,CL,-36.7167,-73.1167,51.48,50,0,17.27
2255285,Sibiti,CG,-3.6819,13.3499,80.85,35,87,1.95
2381972,Adrar,MR,20.5022,-10.0711,105.12,10,100,16.22
3139597,Sistranda,NO,63.7256,8.834,73.36,90,94,4.45
2100765,Angoram,PG,-4.0625,144.0661,72.97,99,55,2.15
3150002,Kjøpsvik,NO,68.097,16.3742,66.06,53,0,5.86
186180,Moyale,KE,3.5167,39.0584,72.55,47,98,15.01
2088163,Popondetta,PG,-8.7537,148.2534,71.62,97,88,3.02
2374583,Bubaque,GW,11.2833,-15.8333,81.16,78,46,7.99
5262634,Menomonie,US,44.8755,-91.9193,79.25,65,0,10.36
3074954,Hrádek,CZ,49.7132,13.653,78.03,68,95,1.9
1722803,Buluang,PH,13.3068,123.3425,81.27,83,100,14.43
2449893,Tessalit,ML,20.1986,1.0114,103.41,18,27,1.52
1485997,Yeniseysk,RU,58.4497,92.1703,58.77,86,95,6.58
1814093,Dali,CN,25.7,100.1833,64.45,88,79,2.08
3714956,Ailigandí,PA,9.2333,-78.0167,80.96,78,100,2.66
2270385,Camacha,PT,33.0833,-16.3333,71.02,73,75,17.27
2444219,Gouré,NE,13.9835,10.2704,85.01,44,85,7.29
5301067,Kingman,US,35.1894,-114.053,85.66,45,1,0.0
3576994,Cockburn Town,TC,21.4612,-71.1419,85.96,66,40,12.66
4692856,Galveston,US,29.3669,-94.9669,87.39,80,100,1.01
5391295,Salinas,US,36.6777,-121.6555,67.96,68,1,6.91
2013279,Vostok,RU,46.4856,135.8833,70.75,84,93,3.13
3356264,Keetmanshoop,NA,-26.5833,18.1333,68.92,19,0,3.44
2037375,Fujin,CN,47.26,132.0322,79.65,55,83,3.29
2122783,Katangli,RU,51.7102,143.2326,59.27,99,99,5.46
4036284,Alofi,NU,-19.0595,-169.9187,66.09,100,52,0.0
3394605,Monte Alegre,BR,-2.0078,-54.0692,93.7,37,0,2.95
2063042,Port Hedland,AU,-20.3167,118.5667,69.85,94,61,10.36
3347019,Mossamedes,AO,-15.1961,12.1522,68.63,75,17,6.96
3452712,Porto Murtinho,BR,-21.6989,-57.8825,58.1,59,99,11.43
5554072,Juneau,US,58.3019,-134.4197,56.34,91,75,4.0
2038067,Chifeng,CN,42.2683,118.9636,69.8,86,80,1.61
2618795,Klaksvík,FO,62.2266,-6.589,54.52,97,96,13.4
1498161,Muzhi,RU,65.3667,64.6667,41.88,92,65,5.79
3939761,Hualmay,PE,-11.0964,-77.6139,68.95,72,48,9.24
72181,Marzuq,YE,14.4,46.4667,77.61,71,86,9.82
4891382,Evanston,US,42.0411,-87.6901,82.81,50,75,1.01
5937073,Deep River,CA,46.1001,-77.4995,61.07,86,100,4.07
2120048,Ust-Nera,RU,64.5667,143.2,48.09,90,98,6.85
2422383,Dalaba,GN,10.7,-12.25,70.36,89,58,4.07
5134295,Rome,US,43.2128,-75.4557,82.22,58,20,1.01
3838233,Salta,AR,-24.7859,-65.4117,46.99,53,90,5.75
933184,Otse,BW,-25.0167,25.7333,51.17,35,0,4.68
1052373,Beira,MZ,-19.8436,34.8389,69.89,78,20,9.22
3374210,São Filipe,CV,14.8961,-24.4956,75.24,78,63,8.43
3893629,Coquimbo,CL,-29.9533,-71.3436,58.73,62,0,11.5
894701,Bulawayo,ZW,-20.15,28.5833,54.01,33,0,7.81
1715015,Dicabisagan,PH,17.0818,122.4157,81.61,81,99,4.18
3392731,Paulo Ramos,BR,-4.2167,-45.1833,94.8,31,25,4.72
2643044,Margate,GB,51.3813,1.3862,68.65,71,77,4.0
2063036,Port Lincoln,AU,-34.7333,135.8667,53.92,73,30,27.51
1631905,Payakumbuh,ID,-0.2202,100.6308,70.34,96,26,2.91
847634,Rypefjord,NO,70.6333,23.6667,52.27,82,20,11.5
4805404,Fairmont,US,39.4851,-80.1426,85.59,44,1,1.01
145459,Ābādān,IR,30.3392,48.3043,107.55,9,0,6.91
1513962,Gurlan,UZ,41.8447,60.3919,77.07,22,0,18.57
2028164,Deputatsky,RU,69.3,139.9,37.63,80,83,4.25
302043,Salihli,TR,38.4826,28.1477,89.26,20,0,9.33
2264923,Peniche,PT,39.3558,-9.3811,71.51,77,0,18.97
1495626,Pangody,RU,65.85,74.4859,51.13,62,18,8.14
3899539,Antofagasta,CL,-23.65,-70.4,64.22,58,7,10.65
1283285,Jumla,NP,29.2747,82.1838,65.84,98,96,1.12
2098329,Daru,PG,-9.0763,143.2092,77.11,87,98,14.97
5404198,Twentynine Palms,US,34.1356,-116.0542,89.69,39,3,1.99
1636022,Martapura,ID,-3.4167,114.85,75.29,94,40,2.3
2185763,Okato,NZ,-39.2,173.8833,47.68,78,65,12.48
8079926,Labuhan,ID,-6.8844,112.2051,73.78,85,44,7.07
898905,Sesheke,ZM,-17.4759,24.2968,60.98,35,0,5.41
5044290,Saint Anthony,US,45.0205,-93.218,87.08,59,1,4.0
4031742,Egvekinot,RU,66.3167,-179.1667,43.84,92,100,8.46
3837213,San Juan,AR,-31.5375,-68.5364,52.52,32,0,7.43
